<?xml version="1.0" encoding="UTF-8" standalone="no"?>
<gpx
  xmlns="http://www.topografix.com/GPX/1/1"
  xmlns:xsi="http://www.w3.org/2001/XMLSchema-instance"
  creator="Kurviger.de"
  version="1.1"
  xmlns:gh="https://kurviger.de/public/schema/gpx/1.1"
>
<metadata>
<name>day-4_part-2</name>
<copyright author="OpenStreetMap contributors"/>
<link href="https://kurviger.de">
<text>Kurviger.de GPX</text>
</link>
<time>2025-01-26T02:33:06Z</time>
</metadata>
<rte><name>day-4_part-2</name><rtept lat="-45.737258" lon="168.44289"><name
      >14 Lumsden Memorial Hall</name><desc>Waypoint 17</desc><sym
      >Flag, Blue</sym><type>start</type></rtept><rtept
      lat="-45.736271"
      lon="168.440759"
    ><name>Petrol station</name><desc>Waypoint 18</desc><sym
      >Flag, Blue</sym><type>via</type></rtept><rtept
      lat="-45.715927"
      lon="168.393761"
    ><name>Mossburn Lumsden Highway, SH 94</name><desc
      >Continue onto Mossburn Lumsden Highway, SH 94</desc><sym
      >Waypoint</sym><type>shaping</type></rtept><rtept
      lat="-45.944023"
      lon="168.113813"
    ><name>Sinclair Road</name><desc>Continue onto Sinclair Road</desc><sym
      >Waypoint</sym><type>shaping</type></rtept><rtept
      lat="-45.932088"
      lon="167.95787"
    ><name>15 Ohai Community Hall</name><desc>Waypoint 19</desc><sym
      >Flag, Blue</sym><type>via</type></rtept><rtept
      lat="-45.948263"
      lon="167.858483"
    ><name>Birchwood Road</name><desc>Continue onto Birchwood Road</desc><sym
      >Waypoint</sym><type>shaping</type></rtept><rtept
      lat="-46.041558"
      lon="167.711409"
    ><name>Waypoint 20</name><desc>Waypoint 20</desc><sym>Waypoint</sym><type
      >shaping</type></rtept><rtept lat="-46.095124" lon="167.701396"><name
      >Clifden Highway, SH 99</name><desc
      >Continue onto Clifden Highway, SH 99</desc><sym>Waypoint</sym><type
      >shaping</type></rtept><rtept lat="-46.137374" lon="167.689223"><name
      > 16 Tuatapere Pipe Band Hall</name><desc>Waypoint 21</desc><sym
      >Flag, Blue</sym><type>via</type></rtept><rtept
      lat="-46.308512"
      lon="167.746171"
    ><name>Waypoint 22</name><desc>Waypoint 22</desc><sym>Waypoint</sym><type
      >shaping</type></rtept><rtept lat="-46.315978" lon="167.80393"><name
      >Orepuki Riverton Highway, SH 99</name><desc
      >Continue onto Orepuki Riverton Highway, SH 99</desc><sym
      >Waypoint</sym><type>shaping</type></rtept><rtept
      lat="-46.352019"
      lon="168.015531"
    ><name>17 Riverton Community House</name><desc>Waypoint 23</desc><sym
      >Flag, Blue</sym><type>via</type></rtept><rtept
      lat="-46.349996"
      lon="168.017148"
    ><name>McKeown Riverton</name><desc>Waypoint 24</desc><sym
      >Flag, Blue</sym><type>via</type></rtept><rtept
      lat="-46.344422"
      lon="168.023588"
    ><name>Palmerston Street, SH 99</name><desc
      >Continue onto Palmerston Street, SH 99</desc><sym>Waypoint</sym><type
      >shaping</type></rtept><rtept lat="-46.15835" lon="168.00857"><name
      >Riverton Otautau Road</name><desc
      >Continue onto Riverton Otautau Road</desc><sym>Waypoint</sym><type
      >shaping</type></rtept><rtept lat="-46.034319" lon="168.107316"><name
      >Waypoint 25</name><desc>Waypoint 25</desc><sym>Waypoint</sym><type
      >shaping</type></rtept><rtept lat="-46.034087" lon="168.117194"><name
      >Winton-Wreys Bush Highway, SH 96</name><desc
      >Continue onto Winton-Wreys Bush Highway, SH 96</desc><sym
      >Waypoint</sym><type>shaping</type></rtept><rtept
      lat="-46.038153"
      lon="168.126309"
    ><name>Bayswater Road</name><desc>Continue onto Bayswater Road</desc><sym
      >Waypoint</sym><type>shaping</type></rtept><rtept
      lat="-46.11372"
      lon="168.236247"
    ><name>Waypoint 26</name><desc>Waypoint 26</desc><sym>Waypoint</sym><type
      >shaping</type></rtept><rtept lat="-46.137361" lon="168.326735"><name
      >Waypoint 27</name><desc>Waypoint 27</desc><sym>Waypoint</sym><type
      >shaping</type></rtept><rtept lat="-46.135789" lon="168.373765"><name
      >Winton - Hedgehope Highway, SH 96</name><desc
      >Continue onto Winton - Hedgehope Highway, SH 96</desc><sym
      >Waypoint</sym><type>shaping</type></rtept><rtept
      lat="-46.150709"
      lon="168.402467"
    ><name>Waypoint 28</name><desc>Waypoint 28</desc><sym>Waypoint</sym><type
      >shaping</type></rtept><rtept lat="-46.1927" lon="168.579408"><name
      >Winton - Hedgehope Highway, SH 96</name><desc
      >Continue onto Winton - Hedgehope Highway, SH 96</desc><sym
      >Waypoint</sym><type>shaping</type></rtept><rtept
      lat="-46.203205"
      lon="168.849415"
    ><name>Waypoint 29</name><desc>Waypoint 29</desc><sym>Waypoint</sym><type
      >shaping</type></rtept><rtept lat="-46.299583" lon="168.78844"><name
      >Pioneer Highway, SH 1</name><desc
      >Continue onto Pioneer Highway, SH 1</desc><sym>Waypoint</sym><type
      >shaping</type></rtept><rtept lat="-46.30957" lon="168.764564"><name
      >Waypoint 30</name><desc>Waypoint 30</desc><sym>Waypoint</sym><type
      >shaping</type></rtept><rtept lat="-46.32127" lon="168.644123"><name
      >Edendale Woodlands Highway, SH 1</name><desc
      >Continue onto Edendale Woodlands Highway, SH 1</desc><sym
      >Waypoint</sym><type>shaping</type></rtept><rtept
      lat="-46.358118"
      lon="168.346597"
    ><name>Waypoint 31</name><desc>Waypoint 31</desc><sym>Waypoint</sym><type
      >shaping</type></rtept><rtept lat="-46.362832" lon="168.347355"><name
      >North Road, SH 6</name><desc>Continue onto North Road, SH 6</desc><sym
      >Waypoint</sym><type>shaping</type></rtept><rtept
      lat="-46.384173"
      lon="168.304748"
    ><name>West Plains School Road</name><desc
      >Continue onto West Plains School Road</desc><sym>Waypoint</sym><type
      >destination</type></rtept></rte>
</gpx>
